"agency_cd","site_no","station_nm","site_tp_cd","dec_lat_va","dec_long_va","coord_acy_cd","dec_coord_datum_cd","alt_va","alt_acy_va","alt_datum_cd","huc_cd","data_type_cd","parm_cd","stat_cd","ts_id","loc_web_ds","medium_grp_cd","parm_grp_cd","srs_id","access_cd","begin_date","end_date","count_nu"
"USGS","01133000","EAST BRANCH PASSUMPSIC RIVER NEAR EAST HAVEN, VT","ST",44.63394195,-71.8975942,"S","NAD83",943.34,0.21,"NAVD88","01080102","dv","00060","00003","64492",NA,"wat",NA,"1645423","0",1939-07-09,2023-10-25,23141
"USGS","01133000","EAST BRANCH PASSUMPSIC RIVER NEAR EAST HAVEN, VT","ST",44.63394195,-71.8975942,"S","NAD83",943.34,0.21,"NAVD88","01080102","qw","00060",NA,"0",NA,"wat","PHY","1645423","0",1957-03-27,1977-10-19,3
"USGS","01133000","EAST BRANCH PASSUMPSIC RIVER NEAR EAST HAVEN, VT","ST",44.63394195,-71.8975942,"S","NAD83",943.34,0.21,"NAVD88","01080102","uv","00060",NA,"66591",NA,"wat",NA,"1645423","0",1997-10-01,2023-10-26,9521
"USGS","01133500","PASSUMPSIC R @ PIERCE'S MILLS, NR ST JOHNSBURY, VT","ST",44.4861677,-72.0092622,"S","NAD83",580,20,"NGVD29","01080102","dv","00060","00003","64493",NA,"wat",NA,"1645423","0",1909-05-26,1919-07-24,3242
"USGS","01134500","MOOSE RIVER AT VICTORY, VT","ST",44.5117231,-71.8373143,"S","NAD83",1103.46,0.16,"NAVD88","01080102","dv","00060","00003","64494",NA,"wat",NA,"1645423","0",1947-01-01,2023-10-25,28057
"USGS","01134500","MOOSE RIVER AT VICTORY, VT","ST",44.5117231,-71.8373143,"S","NAD83",1103.46,0.16,"NAVD88","01080102","qw","00060",NA,"0",NA,"wat","PHY","1645423","0",1957-03-26,2023-02-09,2
"USGS","01134500","MOOSE RIVER AT VICTORY, VT","ST",44.5117231,-71.8373143,"S","NAD83",1103.46,0.16,"NAVD88","01080102","uv","00060",NA,"66594",NA,"wat",NA,"1645423","0",1991-10-28,2023-10-26,11686
"USGS","01134800","KIRBY BROOK AT CONCORD, VT","ST",44.44172466,-71.8784255,"S","NAD83",920,20,"NGVD29","01080102","dv","00060","00003","64495",NA,"wat",NA,"1645423","0",1963-06-20,1974-09-30,4121
"USGS","01135000","MOOSE RIVER AT ST. JOHNSBURY, VT","ST",44.42283589,-72.00009448,"S","NAD83",585,20,"NGVD29","01080102","dv","00060","00003","64496",NA,"wat",NA,"1645423","0",1928-08-07,1983-09-30,20143
"USGS","01135000","MOOSE RIVER AT ST. JOHNSBURY, VT","ST",44.42283589,-72.00009448,"S","NAD83",585,20,"NGVD29","01080102","qw","00060",NA,"0",NA,"wat","PHY","1645423","0",1954-10-09,1955-06-03,2
"USGS","01135100","POPE BROOK TRIBUTARY (W-9), NR NORTH DANVILLE, VT","ST",44.49061087,-72.1617667,"S","NAD83",1720.57,0.08,"NAVD88","01080102","dv","00060","00003","317725",NA,"wat",NA,"1645423","0",2022-10-13,2023-10-25,377
"USGS","01135100","POPE BROOK TRIBUTARY (W-9), NR NORTH DANVILLE, VT","ST",44.49061087,-72.1617667,"S","NAD83",1720.57,0.08,"NAVD88","01080102","uv","00060",NA,"317705",NA,"wat",NA,"1645423","0",2022-10-12,2023-10-26,379
"USGS","01135150","POPE BROOK (SITE W-3) NEAR NORTH DANVILLE, VT","ST",44.47616707,-72.1245431,"S","NAD83",1141.03,0.14,"NAVD88","01080102","dv","00060","00003","64497",NA,"wat",NA,"1645423","0",1990-12-07,2023-10-25,12011
"USGS","01135150","POPE BROOK (SITE W-3) NEAR NORTH DANVILLE, VT","ST",44.47616707,-72.1245431,"S","NAD83",1141.03,0.14,"NAVD88","01080102","uv","00060",NA,"66597",NA,"wat",NA,"1645423","0",1991-10-01,2023-10-26,11713
"USGS","01135300","SLEEPERS RIVER (SITE W-5) NEAR ST. JOHNSBURY, VT","ST",44.4353353,-72.03842899,"S","NAD83",641.27,0.01,"NAVD88","01080102","dv","00060","00003","64498",NA,"wat",NA,"1645423","0",1990-10-01,2023-10-25,12078
"USGS","01135300","SLEEPERS RIVER (SITE W-5) NEAR ST. JOHNSBURY, VT","ST",44.4353353,-72.03842899,"S","NAD83",641.27,0.01,"NAVD88","01080102","uv","00060",NA,"66600",NA,"wat",NA,"1645423","0",1990-11-15,2023-10-26,12033
"USGS","01135500","PASSUMPSIC RIVER AT PASSUMPSIC, VT","ST",44.3656147,-72.0392613,"S","NAD83",487.79,0.12,"NAVD88","01080102","dv","00060","00003","64499",NA,"wat",NA,"1645423","0",1928-11-15,2023-10-24,34673
"USGS","01135500","PASSUMPSIC RIVER AT PASSUMPSIC, VT","ST",44.3656147,-72.0392613,"S","NAD83",487.79,0.12,"NAVD88","01080102","qw","00060",NA,"0",NA,"wat","PHY","1645423","0",1952-10-18,1973-04-23,35
"USGS","01135500","PASSUMPSIC RIVER AT PASSUMPSIC, VT","ST",44.3656147,-72.0392613,"S","NAD83",487.79,0.12,"NAVD88","01080102","uv","00060",NA,"66607",NA,"wat",NA,"1645423","0",1990-10-01,2023-10-26,12078
"USGS","01136000","SOUTH PEACHAM BROOK AT WEST BARNET, VT","ST",44.31005999,-72.1217622,"S","NAD83",841.98,0.01,"NGVD29","01080103","dv","00060","00003","64500",NA,"wat",NA,"1645423","0",1939-08-08,1945-10-31,2277
"USGS","01138500","CONNECTICUT RIVER AT WELLS RIVER, VT","ST",44.15339689,-72.0417577,"S","NAD83",399.37,0.01,"NAVD88","01080101","dv","00060","00003","64504",NA,"wat",NA,"1645423","0",1949-12-14,2023-10-25,26979
"USGS","01138500","CONNECTICUT RIVER AT WELLS RIVER, VT","ST",44.15339689,-72.0417577,"S","NAD83",399.37,0.01,"NAVD88","01080101","qw","00060",NA,"0",NA,"wat","PHY","1645423","0",1952-06-05,1957-03-26,2
"USGS","01138500","CONNECTICUT RIVER AT WELLS RIVER, VT","ST",44.15339689,-72.0417577,"S","NAD83",399.37,0.01,"NAVD88","01080101","uv","00060",NA,"66618",NA,"wat",NA,"1645423","0",1988-07-01,2023-10-26,12900
"USGS","01139000","WELLS RIVER AT WELLS RIVER, VT","ST",44.1503413,-72.0650915,"S","NAD83",505.2,0.12,"NAVD88","01080103","dv","00060","00003","64505",NA,"wat",NA,"1645423","0",1940-08-02,2023-10-25,30400
"USGS","01139000","WELLS RIVER AT WELLS RIVER, VT","ST",44.1503413,-72.0650915,"S","NAD83",505.2,0.12,"NAVD88","01080103","qw","00060",NA,"0",NA,"wat","PHY","1645423","0",1956-12-19,1958-06-11,4
"USGS","01139000","WELLS RIVER AT WELLS RIVER, VT","ST",44.1503413,-72.0650915,"S","NAD83",505.2,0.12,"NAVD88","01080103","uv","00060",NA,"66621",NA,"wat",NA,"1645423","0",1990-10-01,2023-10-26,12078
"USGS","01139500","CONNECTICUT RIVER AT SOUTH NEWBURY, VT","ST",44.0456211,-72.0756454,"S","NAD83",374.9,0.01,"NGVD29","01080104","dv","00060","00003","64506",NA,"wat",NA,"1645423","0",1918-10-01,1950-09-30,11447
"USGS","01139800","EAST ORANGE BRANCH AT EAST ORANGE, VT","ST",44.0928419,-72.33565327,"S","NAD83",1177.59,0.07,"NAVD88","01080103","dv","00060","00003","64507",NA,"wat",NA,"1645423","0",1958-06-01,2023-10-25,23888
"USGS","01139800","EAST ORANGE BRANCH AT EAST ORANGE, VT","ST",44.0928419,-72.33565327,"S","NAD83",1177.59,0.07,"NAVD88","01080103","uv","00060",NA,"66624",NA,"wat",NA,"1645423","0",1990-10-01,2023-10-26,12078
"USGS","01139830","PIKE HILL BR AB RICHARDSON RD, NR BRADFORD, VT","ST",44.0639538,-72.30148518,"S","NAD83",1400,20,"NGVD29","01080103","dv","00060","00003","64508",NA,"wat",NA,"1645423","0",2004-10-18,2006-09-30,713
"USGS","01139833","PIKE HILL BR @ PIKE HILL RD W X, NR BRADFORD, VT","ST",44.05784296,-72.2812067,"S","NAD83",1190,20,"NGVD29","01080103","dv","00060","00003","64518",NA,"wat",NA,"1645423","0",2005-06-01,2006-09-30,487
"USGS","01139838","PIKE HILL BROOK @ PIKE HILL ROAD, NR BRADFORD, VT","ST",44.05339875,-72.25287248,"S","NAD83",940,20,"NGVD29","01080103","dv","00060","00003","64519",NA,"wat",NA,"1645423","0",2004-10-01,2006-09-30,730
"USGS","01140000","SOUTH BRANCH WAITS RIVER NEAR BRADFORD, VT","ST",44.01812176,-72.2073153,"S","NAD83",715,20,"NGVD29","01080103","dv","00060","00003","64529",NA,"wat",NA,"1645423","0",1940-04-01,1951-09-30,4200
"USGS","01140570","LAKE MOREY TRIBUTARY 6 NEAR FAIRLEE, VT","ST",43.93617877,-72.1367566,"S","NAD83",425,20,"NGVD29","01080104","dv","00060","00003","64531",NA,"wat",NA,"1645423","0",1981-02-01,1982-12-15,683
"USGS","01140575","LAKE MOREY TRIBUTARY 5 NEAR FAIRLEE, VT","ST",43.93617877,-72.1409233,"S","NAD83",445,20,"NGVD29","01080104","dv","00060","00003","64532",NA,"wat",NA,"1645423","0",1981-02-01,1982-12-15,683
"USGS","01140580","BIG BROOK (LAKE MOREY TRIBUTARY 4) NR FAIRLEE, VT","ST",43.9347899,-72.1420345,"S","NAD83",430,20,"NGVD29","01080104","dv","00060","00003","64533",NA,"wat",NA,"1645423","0",1981-02-01,1982-12-15,683
"USGS","01140590","GLENN FALLS BK (LAKE MOREY TR 3) NEAR FAIRLEE, VT","ST",43.9203457,-72.1598125,"S","NAD83",470,20,"NGVD29","01080104","dv","00060","00003","64534",NA,"wat",NA,"1645423","0",1981-02-01,1982-12-15,683
"USGS","01140600","LAKE MOREY OUTLET AT FAIRLEE, VT","ST",43.90979035,-72.15759008,"S","NAD83",410,20,"NGVD29","01080104","dv","00060","00003","64535",NA,"wat",NA,"1645423","0",1981-02-01,1982-12-15,683
"USGS","01140817","ELIZABETH MINE DISCHARGE NR S STRAFFORD, VT","ST",43.83590197,-72.3359268,"S","NAD83",880,20,"NGVD29","01080103","dv","00060","00003","165122",NA,"wat",NA,"1645423","0",2016-10-18,2019-09-30,1078
"USGS","01140817","ELIZABETH MINE DISCHARGE NR S STRAFFORD, VT","ST",43.83590197,-72.3359268,"S","NAD83",880,20,"NGVD29","01080103","uv","00060",NA,"165119",NA,"wat",NA,"1645423","0",2016-10-17,2019-10-01,1079
"USGS","01140820","COPPERAS BROOK AT MOUTH, NEAR SOUTH STRAFFORD, VT","ST",43.83117989,-72.3270376,"S","NAD83",780,20,"NGVD29","01080103","dv","00060","00003","64536",NA,"wat",NA,"1645423","0",2001-04-11,2002-04-10,329
"USGS","01141500","OMPOMPANOOSUC RIVER AT UNION VILLAGE, VT","ST",43.79006996,-72.254813,"S","NAD83",415,20,"NGVD29","01080103","dv","00060","00003","64537",NA,"wat",NA,"1645423","0",1940-09-21,1989-09-30,17907
"USGS","01141500","OMPOMPANOOSUC RIVER AT UNION VILLAGE, VT","ST",43.79006996,-72.254813,"S","NAD83",415,20,"NGVD29","01080103","qw","00060",NA,"0",NA,"wat","PHY","1645423","0",1954-10-05,1958-03-10,8
"USGS","01142000","WHITE RIVER NEAR BETHEL, VT","ST",43.81145558,-72.65621269,"S","NAD83",545,20,"NGVD29","01080105","dv","00060","00003","64539",NA,"wat",NA,"1645423","0",1931-05-31,1955-09-30,8889
"USGS","01142000","WHITE RIVER NEAR BETHEL, VT","ST",43.81145558,-72.65621269,"S","NAD83",545,20,"NGVD29","01080105","qw","00060",NA,"0",NA,"wat","PHY","1645423","0",1952-10-23,1953-05-06,2
"USGS","01142500","AYERS BROOK AT RANDOLPH, VT","ST",43.93450969,-72.6578821,"S","NAD83",630.13,0.13,"NAVD88","01080105","dv","00060","00003","64540",NA,"wat",NA,"1645423","0",1939-07-15,2023-10-25,30540
"USGS","01142500","AYERS BROOK AT RANDOLPH, VT","ST",43.93450969,-72.6578821,"S","NAD83",630.13,0.13,"NAVD88","01080105","uv","00060",NA,"66635",NA,"wat",NA,"1645423","0",1990-10-10,2023-10-26,12069
"USGS","01143500","WHITE RIVER AT SHARON, VT","ST",43.76256875,-72.4509281,"S","NAD83",410,20,"NGVD29","01080105","dv","00060","00003","64541",NA,"wat",NA,"1645423","0",1909-05-12,1911-12-31,890
"USGS","01144000","WHITE RIVER AT WEST HARTFORD, VT","ST",43.71423614,-72.418149,"S","NAD83",374.32,0.16,"NAVD88","01080105","dv","00060","00003","64542",NA,"wat",NA,"1645423","0",1915-06-09,2023-10-25,39220
"USGS","01144000","WHITE RIVER AT WEST HARTFORD, VT","ST",43.71423614,-72.418149,"S","NAD83",374.32,0.16,"NAVD88","01080105","qw","00060",NA,"0",NA,"wat","PHY","1645423","0",1952-10-23,1995-02-16,61
"USGS","01144000","WHITE RIVER AT WEST HARTFORD, VT","ST",43.71423614,-72.418149,"S","NAD83",374.32,0.16,"NAVD88","01080105","uv","00060",NA,"66639",NA,"wat",NA,"1645423","0",1990-10-11,2023-10-26,12068
"USGS","01150800","KENT BROOK NEAR KILLINGTON, VT","ST",43.67340095,-72.8087143,"S","NAD83",1560,20,"NGVD29","01080106","dv","00060","00003","64546",NA,"wat",NA,"1645423","0",1963-10-01,1974-09-30,4018
"USGS","01150900","OTTAUQUECHEE RIVER NEAR WEST BRIDGEWATER, VT","ST",43.62229069,-72.7589899,"S","NAD83",1148.59,0.1,"NAVD88","01080106","dv","00060","00003","64547",NA,"wat",NA,"1645423","0",1984-10-01,2023-10-25,13811
"USGS","01150900","OTTAUQUECHEE RIVER NEAR WEST BRIDGEWATER, VT","ST",43.62229069,-72.7589899,"S","NAD83",1148.59,0.1,"NAVD88","01080106","uv","00060",NA,"66645",NA,"wat",NA,"1645423","0",1990-10-01,2023-10-26,12078
"USGS","01151000","OTTAUQUECHEE RIVER AT WOODSTOCK, VT","ST",43.62479175,-72.5200942,"S","NAD83",670.53,0.01,"NGVD29","01080106","dv","00060","00003","64548",NA,"wat",NA,"1645423","0",1928-06-05,1930-09-30,848
"USGS","01151500","OTTAUQUECHEE RIVER AT NORTH HARTLAND, VT","ST",43.60257077,-72.35425819,"S","NAD83",350.27,0.16,"NAVD88","01080106","dv","00060","00003","64549",NA,"wat",NA,"1645423","0",1930-10-01,2023-10-25,33993
"USGS","01151500","OTTAUQUECHEE RIVER AT NORTH HARTLAND, VT","ST",43.60257077,-72.35425819,"S","NAD83",350.27,0.16,"NAVD88","01080106","qw","00060",NA,"0",NA,"wat","PHY","1645423","0",1954-09-23,1955-05-26,2
"USGS","01151500","OTTAUQUECHEE RIVER AT NORTH HARTLAND, VT","ST",43.60257077,-72.35425819,"S","NAD83",350.27,0.16,"NAVD88","01080106","uv","00060",NA,"66649",NA,"wat",NA,"1645423","0",1990-10-01,2023-10-26,12078
"USGS","01152800","BLACK R AT COVERED BRIDGE, AT WEATHERSFIELD, VT","ST",43.39785038,-72.5200912,"S","NAD83",565.33,0.01,"NGVD29","01080106","dv","00060","00003","64551",NA,"wat",NA,"1645423","0",1975-12-01,1981-11-30,2192
"USGS","01153000","BLACK RIVER AT NORTH SPRINGFIELD, VT","ST",43.33340716,-72.51481258,"S","NAD83",445.36,0.01,"NAVD88","01080106","dv","00060","00003","64552",NA,"wat",NA,"1645423","0",1929-11-26,2023-10-25,24075
"USGS","01153000","BLACK RIVER AT NORTH SPRINGFIELD, VT","ST",43.33340716,-72.51481258,"S","NAD83",445.36,0.01,"NAVD88","01080106","qw","00060",NA,"0",NA,"wat","PHY","1645423","0",1954-09-30,1955-06-02,2
"USGS","01153000","BLACK RIVER AT NORTH SPRINGFIELD, VT","ST",43.33340716,-72.51481258,"S","NAD83",445.36,0.01,"NAVD88","01080106","uv","00060",NA,"219167",NA,"wat",NA,"1645423","0",2017-10-01,2023-10-26,2216
"USGS","01153500","WILLIAMS RIVER AT BROCKWAYS MILLS, VT","ST",43.20868736,-72.5175895,"S","NAD83",433.54,0.01,"NGVD29","01080107","dv","00060","00003","64553",NA,"wat",NA,"1645423","0",1940-06-21,1984-09-30,16173
"USGS","01153500","WILLIAMS RIVER AT BROCKWAYS MILLS, VT","ST",43.20868736,-72.5175895,"S","NAD83",433.54,0.01,"NGVD29","01080107","qw","00060",NA,"0",NA,"wat","PHY","1645423","0",1956-12-18,1973-08-23,47
"USGS","01153550","WILLIAMS RIVER NEAR ROCKINGHAM VT","ST",43.1917433,-72.48508889,"S","NAD83",303.26,0.01,"NAVD88","01080107","dv","00060","00003","64554",NA,"wat",NA,"1645423","0",1986-10-01,2023-10-25,13536
"USGS","01153550","WILLIAMS RIVER NEAR ROCKINGHAM VT","ST",43.1917433,-72.48508889,"S","NAD83",303.26,0.01,"NAVD88","01080107","uv","00060",NA,"66660",NA,"wat",NA,"1645423","0",1990-10-01,2023-10-26,12078
"USGS","01154000","SAXTONS RIVER AT SAXTONS RIVER, VT","ST",43.13757777,-72.4881444,"S","NAD83",395.63,0.16,"NAVD88","01080107","dv","00060","00003","64558",NA,"wat",NA,"1645423","0",1940-06-20,2023-03-20,23405
"USGS","01154000","SAXTONS RIVER AT SAXTONS RIVER, VT","ST",43.13757777,-72.4881444,"S","NAD83",395.63,0.16,"NAVD88","01080107","qw","00060",NA,"0",NA,"wat","PHY","1645423","0",1956-12-18,1977-11-30,3
"USGS","01154000","SAXTONS RIVER AT SAXTONS RIVER, VT","ST",43.13757777,-72.4881444,"S","NAD83",395.63,0.16,"NAVD88","01080107","uv","00060",NA,"66663",NA,"wat",NA,"1645423","0",2001-06-06,2023-03-21,7958
"USGS","01155200","SACKETS BROOK NEAR PUTNEY, VT","ST",42.99924724,-72.5325897,"S","NAD83",425,20,"NGVD29","01080104","dv","00060","00003","323550",NA,"wat",NA,"1645423","0",1963-03-15,1974-09-30,4218
"USGS","01155300","FLOOD BROOK NEAR LONDONDERRY, VT","ST",43.23646409,-72.85593249,"S","NAD83",1300,20,"NGVD29","01080107","dv","00060","00003","64566",NA,"wat",NA,"1645423","0",1963-02-15,1974-09-30,4246
"USGS","01155500","WEST RIVER AT JAMAICA, VT","ST",43.1089665,-72.775374,"S","NAD83",660.63,0.09,"NAVD88","01080107","dv","00060","00003","64567",NA,"wat",NA,"1645423","0",1946-10-01,2023-10-25,25958
"USGS","01155500","WEST RIVER AT JAMAICA, VT","ST",43.1089665,-72.775374,"S","NAD83",660.63,0.09,"NAVD88","01080107","qw","00060",NA,"0",NA,"wat","PHY","1645423","0",1953-11-13,1953-11-13,1
"USGS","01155500","WEST RIVER AT JAMAICA, VT","ST",43.1089665,-72.775374,"S","NAD83",660.63,0.09,"NAVD88","01080107","uv","00060",NA,"66679",NA,"wat",NA,"1645423","0",1995-10-01,2023-10-26,10252
"USGS","01155910","WEST RIVER BELOW TOWNSHEND DAM NEAR TOWNSHEND, VT","ST",43.0511901,-72.7000939,"S","NAD83",452.11,0.01,"NAVD88","01080107","dv","00060","00003","64568",NA,"wat",NA,"1645423","0",1994-10-01,2000-09-30,2192
"USGS","01156000","WEST RIVER AT NEWFANE, VT","ST",42.99535805,-72.636481,"S","NAD83",384.21,0.01,"NGVD29","01080107","dv","00060","00003","64569",NA,"wat",NA,"1645423","0",1919-09-13,1989-09-30,23759
"USGS","01156000","WEST RIVER AT NEWFANE, VT","ST",42.99535805,-72.636481,"S","NAD83",384.21,0.01,"NGVD29","01080107","qw","00060",NA,"0",NA,"wat","PHY","1645423","0",1954-05-08,1954-05-08,1
"USGS","01156500","CONNECTICUT RIVER AT VERNON, VT","ST",42.7714715,-72.51425569,"S","NAD83",190,20,"NGVD29","01080201","dv","00060","00003","64570",NA,"wat",NA,"1645423","0",1936-02-01,1973-09-30,10743
"USGS","01156500","CONNECTICUT RIVER AT VERNON, VT","ST",42.7714715,-72.51425569,"S","NAD83",190,20,"NGVD29","01080201","qw","00060",NA,"0",NA,"wat","PHY","1645423","0",1952-10-22,1958-03-10,7
"USGS","01167800","BEAVER BROOK AT WILMINGTON, VT","ST",42.86063678,-72.8512085,"S","NAD83",1565,20,"NGVD29","01080203","dv","00060","00003","64604",NA,"wat",NA,"1645423","0",1963-02-20,1977-09-30,5337
"USGS","01167800","BEAVER BROOK AT WILMINGTON, VT","ST",42.86063678,-72.8512085,"S","NAD83",1565,20,"NGVD29","01080203","qw","00060",NA,"0",NA,"wat","PHY","1645423","0",1967-05-02,1973-08-13,41
"USGS","01329000","BATTEN KILL AT ARLINGTON, VT","ST",43.07618845,-73.15677339,"S","NAD83",596.68,0.01,"NGVD29","02020003","dv","00060","00003","65043",NA,"wat",NA,"1645423","0",1928-10-01,1984-06-30,20362
"USGS","01333350","HOOSIC RIVER AT ROUTE 346, NEAR NORTH POWNAL, VT","ST",42.80888889,-73.2858333,"S","NAD83",490,20,"NGVD29","02020003","qw","00060",NA,"0",NA,"wat","PHY","1645423","0",1969-10-06,1972-09-07,34
"USGS","01334000","WALLOOMSAC RIVER NEAR NORTH BENNINGTON, VT","ST",42.91285604,-73.2564981,"S","NAD83",525.44,0.01,"NAVD88","02020003","dv","00060","00003","65049",NA,"wat",NA,"1645423","0",1931-06-27,2023-10-25,33724
"USGS","01334000","WALLOOMSAC RIVER NEAR NORTH BENNINGTON, VT","ST",42.91285604,-73.2564981,"S","NAD83",525.44,0.01,"NAVD88","02020003","qw","00060",NA,"0",NA,"wat","PHY","1645423","0",1953-09-15,1954-03-30,2
"USGS","01334000","WALLOOMSAC RIVER NEAR NORTH BENNINGTON, VT","ST",42.91285604,-73.2564981,"S","NAD83",525.44,0.01,"NAVD88","02020003","uv","00060",NA,"67251",NA,"wat",NA,"1645423","0",1990-10-01,2023-10-26,12078
"USGS","04280000","POULTNEY RIVER BELOW FAIR HAVEN, VT","ST",43.6242324,-73.3115011,"S","NAD83",102.37,0.1,"NAVD88","04150401","dv","00060","00003","65051",NA,"wat",NA,"1645423","0",1928-10-01,2023-10-25,34723
"USGS","04280000","POULTNEY RIVER BELOW FAIR HAVEN, VT","ST",43.6242324,-73.3115011,"S","NAD83",102.37,0.1,"NAVD88","04150401","uv","00060",NA,"67256",NA,"wat",NA,"1645423","0",1990-10-01,2023-10-26,12078
"USGS","04280300","METTAWEE RIVER TRIBUTARY NEAR PAWLET, VT","ST",43.3264627,-73.1717735,"S","NAD83",655,20,"NGVD29","04150401","dv","00060","00003","65052",NA,"wat",NA,"1645423","0",1963-02-20,1974-09-30,4241
"USGS","04280350","METTAWEE RIVER NEAR PAWLET, VT","ST",43.37062828,-73.21621889,"S","NAD83",525,20,"NGVD29","04150401","dv","00060","00003","65053",NA,"wat",NA,"1645423","0",1984-10-01,2009-08-04,9074
"USGS","04280350","METTAWEE RIVER NEAR PAWLET, VT","ST",43.37062828,-73.21621889,"S","NAD83",525,20,"NGVD29","04150401","qw","00060",NA,"0",NA,"wat","PHY","1645423","0",1966-07-13,1966-07-13,1
"USGS","04280350","METTAWEE RIVER NEAR PAWLET, VT","ST",43.37062828,-73.21621889,"S","NAD83",525,20,"NGVD29","04150401","uv","00060",NA,"67259",NA,"wat",NA,"1645423","0",1990-10-01,2009-08-04,6882
"USGS","04280800","SOUTH FORK NEAR ORWELL, VT","ST",43.80561679,-73.320672,"S","NAD83",160,20,"NGVD29","04150401","dv","00060","00003","65054",NA,"wat",NA,"1645423","0",1990-03-01,1992-04-30,792
"USGS","04280910","MOON BROOK BELOW MUSSEY BROOK AT RUTLAND, VT","ST",43.59444444,-72.98138889,"S","NAD83",530,10,"NGVD29","04150402","dv","00060","00003","65055",NA,"wat",NA,"1645423","0",2010-08-04,2011-10-03,426
"USGS","04281500","EAST CREEK AT RUTLAND, VT","ST",43.6286789,-72.98899607,"S","NAD83",570,20,"NGVD29","04150402","dv","00060","00003","65056",NA,"wat",NA,"1645423","0",1940-08-18,1977-09-30,13558
"USGS","04282000","OTTER CREEK AT CENTER RUTLAND, VT","ST",43.6036792,-73.0131628,"S","NAD83",474.35,0.01,"NAVD88","04150402","dv","00060","00003","65057",NA,"wat",NA,"1645423","0",1928-05-31,2023-10-25,34845
"USGS","04282000","OTTER CREEK AT CENTER RUTLAND, VT","ST",43.6036792,-73.0131628,"S","NAD83",474.35,0.01,"NAVD88","04150402","qw","00060",NA,"0",NA,"wat","PHY","1645423","0",1954-10-06,1971-04-27,4
"USGS","04282000","OTTER CREEK AT CENTER RUTLAND, VT","ST",43.6036792,-73.0131628,"S","NAD83",474.35,0.01,"NAVD88","04150402","uv","00060",NA,"67261",NA,"wat",NA,"1645423","0",1991-10-11,2023-10-26,11703
"USGS","04282500","OTTER CREEK AT MIDDLEBURY, VT","ST",44.01311488,-73.1678954,"S","NAD83",335.36,0.16,"NAVD88","04150402","dv","00060","00003","65058",NA,"wat",NA,"1645423","0",1903-04-01,2023-10-25,39176
"USGS","04282500","OTTER CREEK AT MIDDLEBURY, VT","ST",44.01311488,-73.1678954,"S","NAD83",335.36,0.16,"NAVD88","04150402","qw","00060",NA,"0",NA,"wat","PHY","1645423","0",1953-10-22,1973-09-19,59
"USGS","04282500","OTTER CREEK AT MIDDLEBURY, VT","ST",44.01311488,-73.1678954,"S","NAD83",335.36,0.16,"NAVD88","04150402","uv","00060",NA,"67264",NA,"wat",NA,"1645423","0",1990-10-01,2023-10-26,12078
"USGS","04282525","NEW HAVEN RIVER @ BROOKSVILLE, NR MIDDLEBURY, VT","ST",44.0617249,-73.17067429,"S","NAD83",239.29,0.1,"NAVD88","04150402","dv","00060","00003","65059",NA,"wat",NA,"1645423","0",1990-03-01,2023-10-24,12291
"USGS","04282525","NEW HAVEN RIVER @ BROOKSVILLE, NR MIDDLEBURY, VT","ST",44.0617249,-73.17067429,"S","NAD83",239.29,0.1,"NAVD88","04150402","uv","00060",NA,"67267",NA,"wat",NA,"1645423","0",1990-10-05,2023-10-26,12074
"USGS","04282576","OTTER CREEK BLW VERGENNES FALLS, AT VERGENNES, VT","ST",44.16956667,-73.25848889,"5","NAD83",0,0.02,"NAVD88","04150402","dv","00060","00003","251687",NA,"wat",NA,"1645423","0",2018-05-21,2018-11-04,168
"USGS","04282576","OTTER CREEK BLW VERGENNES FALLS, AT VERGENNES, VT","ST",44.16956667,-73.25848889,"5","NAD83",0,0.02,"NAVD88","04150402","uv","00060",NA,"243215",NA,"wat",NA,"1645423","0",2018-05-21,2018-11-05,168
"USGS","04282581","EAST BR DEAD CREEK NEAR BRIDPORT, VT","ST",44.0286111,-73.32063889,"5","NAD83",99.48,0.09,"NAVD88","04150402","dv","00060","00003","253885",NA,"wat",NA,"1645423","0",2020-10-26,2023-10-25,955
"USGS","04282581","EAST BR DEAD CREEK NEAR BRIDPORT, VT","ST",44.0286111,-73.32063889,"5","NAD83",99.48,0.09,"NAVD88","04150402","uv","00060",NA,"304287","[(3)]","wat",NA,"1645423","0",2020-10-26,2023-10-26,1095
"USGS","04282586","WEST BR DEAD CREEK NEAR ADDISON, VT","ST",44.04916667,-73.3541667,"5","NAD83",100.56,0.07,"NAVD88","04150402","dv","00060","00003","253899",NA,"wat",NA,"1645423","0",2019-09-27,2023-10-25,1478
"USGS","04282586","WEST BR DEAD CREEK NEAR ADDISON, VT","ST",44.04916667,-73.3541667,"5","NAD83",100.56,0.07,"NAVD88","04150402","uv","00060",NA,"253898",NA,"wat",NA,"1645423","0",2019-09-27,2023-10-26,1490
"USGS","04282629","LITTLE OTTER CK AT MONKTON RD, NR FERRISBURGH, VT","ST",44.185725,-73.1848694,"5","NAD83",236.62,0.06,"NAVD88","04150402","dv","00060","00003","253874",NA,"wat",NA,"1645423","0",2019-09-18,2023-10-25,1499
"USGS","04282629","LITTLE OTTER CK AT MONKTON RD, NR FERRISBURGH, VT","ST",44.185725,-73.1848694,"5","NAD83",236.62,0.06,"NAVD88","04150402","uv","00060",NA,"253873",NA,"wat",NA,"1645423","0",2019-09-17,2023-10-26,1500
"USGS","04282634","LITTLE OTTER CR AB MIDDLEBRK RD NR FERRISBURG, VT","ST",44.2042214,-73.2034556,"S","NAD83",165,10,"NGVD29","04150402","qw","00060",NA,"0",NA,"wat","PHY","1645423","0",2003-03-18,2003-07-22,42
"USGS","04282636","LITTLE OTTER CR @ MIDDLEBRK RD, NR FERRISBURG, VT","ST",44.1989436,-73.2120667,"S","NAD83",165,10,"NGVD29","04150402","qw","00060",NA,"0",NA,"wat","PHY","1645423","0",2003-03-18,2003-07-25,50
"USGS","04282650","LITTLE OTTER CREEK AT FERRISBURG, VT","ST",44.19810987,-73.2490117,"S","NAD83",146.81,0.1,"NAVD88","04150402","dv","00060","00003","65060",NA,"wat",NA,"1645423","0",1990-03-01,2023-10-25,12292
"USGS","04282650","LITTLE OTTER CREEK AT FERRISBURG, VT","ST",44.19810987,-73.2490117,"S","NAD83",146.81,0.1,"NAVD88","04150402","uv","00060",NA,"67273",NA,"wat",NA,"1645423","0",1990-10-29,2023-10-26,12050
"USGS","04282700","LEWIS CREEK TRIBUTARY AT STARKSBORO, VT","ST",44.21672294,-73.0553979,"S","NAD83",640,20,"NGVD29","04150402","dv","00060","00003","65061",NA,"wat",NA,"1645423","0",1963-02-14,1974-09-30,4247
"USGS","04282780","LEWIS CREEK AT NORTH FERRISBURG, VT","ST",44.24922015,-73.22845688,"S","NAD83",117.6,0.1,"NAVD88","04150402","dv","00060","00003","65062",NA,"wat",NA,"1645423","0",1990-03-01,2023-10-25,12291
"USGS","04282780","LEWIS CREEK AT NORTH FERRISBURG, VT","ST",44.24922015,-73.22845688,"S","NAD83",117.6,0.1,"NAVD88","04150402","uv","00060",NA,"67276",NA,"wat",NA,"1645423","0",1990-03-02,2023-10-26,12291
"USGS","04282795","LAPLATTE RIVER AT SHELBURNE FALLS, VT","ST",44.3700512,-73.2162367,"S","NAD83",147.4,0.11,"NAVD88","04150403","dv","00060","00003","65063",NA,"wat",NA,"1645423","0",1990-03-01,2023-10-25,12292
"USGS","04282795","LAPLATTE RIVER AT SHELBURNE FALLS, VT","ST",44.3700512,-73.2162367,"S","NAD83",147.4,0.11,"NAVD88","04150403","uv","00060",NA,"67278",NA,"wat",NA,"1645423","0",1990-10-24,2023-10-26,12055
"USGS","04282800","MUNROE BROOK AT SHELBURNE, VT","ST",44.4061111,-73.2175,"S","NAD83",140,10,"NAVD88","04150403","dv","00060","00003","65064",NA,"wat",NA,"1645423","0",2010-07-29,2011-10-10,439
"USGS","04282800","MUNROE BROOK AT SHELBURNE, VT","ST",44.4061111,-73.2175,"S","NAD83",140,10,"NAVD88","04150403","uv","00060",NA,"67282",NA,"wat",NA,"1645423","0",2010-07-30,2011-10-11,438
"USGS","04282805","BARTLETT BROOK AT SOUTH BURLINGTON, VT","ST",44.4261111,-73.215,"S","NAD83",115,10,"NAVD88","04150403","dv","00060","00003","65066",NA,"wat",NA,"1645423","0",2010-07-29,2011-09-30,429
"USGS","04282805","BARTLETT BROOK AT SOUTH BURLINGTON, VT","ST",44.4261111,-73.215,"S","NAD83",115,10,"NAVD88","04150403","uv","00060",NA,"67285",NA,"wat",NA,"1645423","0",2010-07-29,2011-09-30,428
"USGS","04282813","POTASH BR @ QUEEN CITY PARK RD, NR BURLINGTON, VT","ST",44.44588307,-73.2134604,"S","NAD83",150,20,"NGVD29","04150403","dv","00060","00003","65067",NA,"wat",NA,"1645423","0",2004-07-29,2011-09-30,2620
"USGS","04282813","POTASH BR @ QUEEN CITY PARK RD, NR BURLINGTON, VT","ST",44.44588307,-73.2134604,"S","NAD83",150,20,"NGVD29","04150403","uv","00060",NA,"67287",NA,"wat",NA,"1645423","0",2004-07-29,2011-09-29,2618
"USGS","04282815","ENGLESBY BROOK AT BURLINGTON, VT","ST",44.4578272,-73.219294,"S","NAD83",105,20,"NGVD29","04150403","dv","00060","00003","65068",NA,"wat",NA,"1645423","0",1999-09-30,2010-09-30,4019
"USGS","04282815","ENGLESBY BROOK AT BURLINGTON, VT","ST",44.4578272,-73.219294,"S","NAD83",105,20,"NGVD29","04150403","qw","00060",NA,"0",NA,"wat","PHY","1645423","0",2000-02-24,2004-03-31,59
"USGS","04282815","ENGLESBY BROOK AT BURLINGTON, VT","ST",44.4578272,-73.219294,"S","NAD83",105,20,"NGVD29","04150403","uv","00060",NA,"67288",NA,"wat",NA,"1645423","0",1999-10-01,2010-10-01,4018
"USGS","04283000","MOLLYS BROOK NEAR MARSHFIELD, VT","ST",44.3575,-72.33138889,"S","NAD83",1050,20,"NGVD29","04150403","dv","00060","00003","65069",NA,"wat",NA,"1645423","0",1920-08-11,1923-09-30,1146
"USGS","04284000","JAIL BRANCH AT EAST BARRE, VT","ST",44.1583955,-72.44510228,"S","NAD83",1107.25,0.01,"NGVD29","04150403","dv","00060","00003","65071",NA,"wat",NA,"1645423","0",1920-08-14,1992-09-30,22662
"USGS","04285500","NORTH BRANCH WINOOSKI RIVER AT WRIGHTSVILLE, VT","ST",44.29950278,-72.57872119,"S","NAD83",549.04,0.08,"NAVD88","04150403","dv","00060","00003","65073",NA,"wat",NA,"1645423","0",1933-10-01,2023-10-25,32893
"USGS","04285500","NORTH BRANCH WINOOSKI RIVER AT WRIGHTSVILLE, VT","ST",44.29950278,-72.57872119,"S","NAD83",549.04,0.08,"NAVD88","04150403","qw","00060",NA,"0",NA,"wat","PHY","1645423","0",1957-03-26,1957-03-26,1
"USGS","04285500","NORTH BRANCH WINOOSKI RIVER AT WRIGHTSVILLE, VT","ST",44.29950278,-72.57872119,"S","NAD83",549.04,0.08,"NAVD88","04150403","uv","00060",NA,"67297",NA,"wat",NA,"1645423","0",1990-10-01,2023-10-26,12078
"USGS","04286000","WINOOSKI RIVER AT MONTPELIER, VT","ST",44.25672595,-72.59344318,"S","NAD83",499.87,0.16,"NAVD88","04150403","dv","00060","00003","65074",NA,"wat",NA,"1645423","0",1914-07-01,2023-10-25,38156
"USGS","04286000","WINOOSKI RIVER AT MONTPELIER, VT","ST",44.25672595,-72.59344318,"S","NAD83",499.87,0.16,"NAVD88","04150403","uv","00060",NA,"67304",NA,"wat",NA,"1645423","0",1990-10-01,2023-10-26,12078
"USGS","04286500","DOG RIVER AT NORTHFIELD, VT","ST",44.1389503,-72.6664987,"S","NAD83",730,20,"NGVD29","04150403","dv","00060","00003","65075",NA,"wat",NA,"1645423","0",1909-05-14,1934-11-22,5787
"USGS","04287000","DOG RIVER AT NORTHFIELD FALLS, VT","ST",44.1825606,-72.6406655,"S","NAD83",602.42,0.16,"NAVD88","04150403","dv","00060","00003","65076",NA,"wat",NA,"1645423","0",1934-11-27,2023-10-25,32475
"USGS","04287000","DOG RIVER AT NORTHFIELD FALLS, VT","ST",44.1825606,-72.6406655,"S","NAD83",602.42,0.16,"NAVD88","04150403","qw","00060",NA,"0",NA,"wat","PHY","1645423","0",1957-03-26,1957-03-26,1
"USGS","04287000","DOG RIVER AT NORTHFIELD FALLS, VT","ST",44.1825606,-72.6406655,"S","NAD83",602.42,0.16,"NAVD88","04150403","uv","00060",NA,"67308",NA,"wat",NA,"1645423","0",1990-10-01,2023-10-26,12078
"USGS","04287300","SUNNY BROOK NEAR MONTPELIER, VT","ST",44.2681144,-72.6240002,"S","NAD83",510,20,"NGVD29","04150403","dv","00060","00003","65077",NA,"wat",NA,"1645423","0",1963-10-01,1974-09-30,4018
"USGS","04288000","MAD RIVER NEAR MORETOWN, VT","ST",44.2772802,-72.7426163,"S","NAD83",543.67,0.16,"NAVD88","04150403","dv","00060","00003","65078",NA,"wat",NA,"1645423","0",1928-10-01,2023-10-25,34723
"USGS","04288000","MAD RIVER NEAR MORETOWN, VT","ST",44.2772802,-72.7426163,"S","NAD83",543.67,0.16,"NAVD88","04150403","qw","00060",NA,"0",NA,"wat","PHY","1645423","0",1954-09-22,1973-08-14,52
"USGS","04288000","MAD RIVER NEAR MORETOWN, VT","ST",44.2772802,-72.7426163,"S","NAD83",543.67,0.16,"NAVD88","04150403","uv","00060",NA,"67311",NA,"wat",NA,"1645423","0",1990-10-01,2023-10-26,12078
"USGS","04288225","W BRANCH LITTLE R ABV BINGHAM FALLS NEAR STOWE, VT","ST",44.52338556,-72.7717885,"S","NAD83",1357.94,0.09,"NAVD88","04150403","dv","00060","00003","65079",NA,"wat",NA,"1645423","0",2000-10-01,2023-10-25,8424
"USGS","04288225","W BRANCH LITTLE R ABV BINGHAM FALLS NEAR STOWE, VT","ST",44.52338556,-72.7717885,"S","NAD83",1357.94,0.09,"NAVD88","04150403","uv","00060",NA,"67320",NA,"wat",NA,"1645423","0",2000-10-01,2023-10-26,8425
"USGS","04288230","RANCH BROOK AT RANCH CAMP, NEAR STOWE, VT","ST",44.5039413,-72.7817883,"S","NAD83",1296.26,0.14,"NAVD88","04150403","dv","00060","00003","65080",NA,"wat",NA,"1645423","0",2000-10-01,2023-10-25,8425
"USGS","04288230","RANCH BROOK AT RANCH CAMP, NEAR STOWE, VT","ST",44.5039413,-72.7817883,"S","NAD83",1296.26,0.14,"NAVD88","04150403","uv","00060",NA,"67324",NA,"wat",NA,"1645423","0",2000-10-01,2023-10-26,8425
"USGS","04288295","LITTLE RIVER NEAR STOWE, VT","ST",44.4425,-72.7244444,"5","NAD83",608.06,0.01,"NAVD88","04150403","dv","00060","00003","165591",NA,"wat",NA,"1645423","0",2016-08-27,2023-10-25,2610
"USGS","04288295","LITTLE RIVER NEAR STOWE, VT","ST",44.4425,-72.7244444,"5","NAD83",608.06,0.01,"NAVD88","04150403","uv","00060",NA,"165590",NA,"wat",NA,"1645423","0",2016-08-26,2023-10-26,2617
"USGS","04289000","LITTLE RIVER NEAR WATERBURY, VT","ST",44.37033339,-72.7687298,"S","NAD83",427.62,0.09,"NAVD88","04150403","dv","00060","00003","65082",NA,"wat",NA,"1645423","0",1935-12-01,2023-10-25,32011
"USGS","04289000","LITTLE RIVER NEAR WATERBURY, VT","ST",44.37033339,-72.7687298,"S","NAD83",427.62,0.09,"NAVD88","04150403","uv","00060",NA,"67330",NA,"wat",NA,"1645423","0",1990-10-01,2023-10-26,12078
"USGS","04290335","ALLEN BROOK AT VT 2A, NEAR ESSEX JUNCTION, VT","ST",44.46171705,-73.1126264,"S","NAD83",320,20,"NGVD29","04150403","dv","00060","00003","65083",NA,"wat",NA,"1645423","0",2005-08-20,2013-11-05,3000
"USGS","04290335","ALLEN BROOK AT VT 2A, NEAR ESSEX JUNCTION, VT","ST",44.46171705,-73.1126264,"S","NAD83",320,20,"NGVD29","04150403","uv","00060",NA,"67334",NA,"wat",NA,"1645423","0",2007-10-01,2013-11-05,2227
"USGS","04290500","WINOOSKI RIVER NEAR ESSEX JUNCTION, VT","ST",44.47893867,-73.1387381,"S","NAD83",191.17,0.1,"NAVD88","04150403","dv","00060","00003","65087",NA,"wat",NA,"1645423","0",1928-10-01,2023-10-25,34720
"USGS","04290500","WINOOSKI RIVER NEAR ESSEX JUNCTION, VT","ST",44.47893867,-73.1387381,"S","NAD83",191.17,0.1,"NAVD88","04150403","qw","00060",NA,"0",NA,"wat","PHY","1645423","0",1952-10-17,1953-05-03,2
"USGS","04290500","WINOOSKI RIVER NEAR ESSEX JUNCTION, VT","ST",44.47893867,-73.1387381,"S","NAD83",191.17,0.1,"NAVD88","04150403","uv","00060",NA,"67337",NA,"wat",NA,"1645423","0",1990-10-01,2023-10-26,12078
"USGS","04290575","INDIAN BROOK NEAR ESSEX JUNCTION, VT","ST",44.5069444,-73.11777778,"S","NAD83",310,10,"NGVD29","04150405","dv","00060","00003","65088",NA,"wat",NA,"1645423","0",2010-07-15,2011-10-10,453
"USGS","04290575","INDIAN BROOK NEAR ESSEX JUNCTION, VT","ST",44.5069444,-73.11777778,"S","NAD83",310,10,"NGVD29","04150405","uv","00060",NA,"67343",NA,"wat",NA,"1645423","0",2010-07-15,2011-10-10,452
"USGS","04290580","INDIAN BROOK NEAR COLCHESTER, VT","ST",44.5481039,-73.1654069,"S","NAD83",145,20,"NGVD29","04150405","dv","00060","00003","65089",NA,"wat",NA,"1645423","0",1990-03-01,1992-04-30,792
"USGS","04290610","MALLETTS CREEK NEAR COLCHESTER, VT","ST",44.58115948,-73.1273529,"S","NAD83",250,20,"NGVD29","04150405","dv","00060","00003","65090",NA,"wat",NA,"1645423","0",1990-03-01,1992-04-30,792
"USGS","04291000","GREEN RIVER AT GARFIELD, VT","ST",44.6028294,-72.5351126,"S","NAD83",1100.43,0.01,"NGVD29","04150405","dv","00060","00003","65091",NA,"wat",NA,"1645423","0",1915-10-01,1932-06-30,5507
"USGS","04291500","LAMOILLE RIVER AT CADYS FALLS, VT","ST",44.57588526,-72.61567177,"S","NAD83",535,20,"NGVD29","04150405","dv","00060","00003","65092",NA,"wat",NA,"1645423","0",1913-09-04,1923-09-30,3679
"USGS","04292000","LAMOILLE RIVER AT JOHNSON, VT","ST",44.6228287,-72.6762308,"S","NAD83",506.1,0.16,"NAVD88","04150405","dv","00060","00003","65093",NA,"wat",NA,"1645423","0",1910-07-14,2023-10-25,35645
"USGS","04292000","LAMOILLE RIVER AT JOHNSON, VT","ST",44.6228287,-72.6762308,"S","NAD83",506.1,0.16,"NAVD88","04150405","qw","00060",NA,"0",NA,"wat","PHY","1645423","0",1952-10-15,1953-05-03,2
"USGS","04292000","LAMOILLE RIVER AT JOHNSON, VT","ST",44.6228287,-72.6762308,"S","NAD83",506.1,0.16,"NAVD88","04150405","uv","00060",NA,"67344",NA,"wat",NA,"1645423","0",1990-10-01,2023-10-26,12078
"USGS","04292100","STONY BROOK NEAR EDEN, VT","ST",44.6936609,-72.5823378,"S","NAD83",895,20,"NGVD29","04150405","dv","00060","00003","65094",NA,"wat",NA,"1645423","0",1963-06-28,1974-09-30,4113
"USGS","04292500","LAMOILLE RIVER AT EAST GEORGIA, VT","ST",44.67921477,-73.0726365,"S","NAD83",288.9,0.1,"NAVD88","04150405","dv","00060","00003","65095",NA,"wat",NA,"1645423","0",1929-08-26,2023-10-25,34394
"USGS","04292500","LAMOILLE RIVER AT EAST GEORGIA, VT","ST",44.67921477,-73.0726365,"S","NAD83",288.9,0.1,"NAVD88","04150405","qw","00060",NA,"0",NA,"wat","PHY","1645423","0",1954-10-05,1973-09-19,22
"USGS","04292500","LAMOILLE RIVER AT EAST GEORGIA, VT","ST",44.67921477,-73.0726365,"S","NAD83",288.9,0.1,"NAVD88","04150405","uv","00060",NA,"67350",NA,"wat",NA,"1645423","0",1989-10-01,2023-10-26,12443
"USGS","04292700","STONE BRIDGE BROOK NEAR GEORGIA PLAINS, VT","ST",44.7039345,-73.1815222,"S","NAD83",150,20,"NGVD29","04150405","dv","00060","00003","65096",NA,"wat",NA,"1645423","0",1963-02-13,2000-09-30,8115
"USGS","04292700","STONE BRIDGE BROOK NEAR GEORGIA PLAINS, VT","ST",44.7039345,-73.1815222,"S","NAD83",150,20,"NGVD29","04150405","uv","00060",NA,"221526",NA,"wat",NA,"1645423","0",1990-03-28,2000-09-30,3839
"USGS","04292750","MILL RIVER AT GEORGIA SHORE RD, NR ST ALBANS, VT","ST",44.7797674,-73.1437467,"S","NAD83",117.95,0.16,"NAVD88","04150405","dv","00060","00003","65097",NA,"wat",NA,"1645423","0",2010-10-20,2023-10-25,4754
"USGS","04292750","MILL RIVER AT GEORGIA SHORE RD, NR ST ALBANS, VT","ST",44.7797674,-73.1437467,"S","NAD83",117.95,0.16,"NAVD88","04150405","uv","00060",NA,"67354",NA,"wat",NA,"1645423","0",2010-10-21,2023-10-26,4753
"USGS","04292770","STEVENS BROOK AT LEMNAH DRIVE, AT ST ALBANS, VT","ST",44.8056013,-73.0879147,"S","NAD83",390,20,"NGVD29","04150405","dv","00060","00003","65098",NA,"wat",NA,"1645423","0",2005-11-17,2011-09-30,2144
"USGS","04292770","STEVENS BROOK AT LEMNAH DRIVE, AT ST ALBANS, VT","ST",44.8056013,-73.0879147,"S","NAD83",390,20,"NGVD29","04150405","uv","00060",NA,"67357",NA,"wat",NA,"1645423","0",2007-10-01,2011-10-01,1461
"USGS","04292795","STEVENS BROOK AT KELLOGG ROAD, NEAR ST. ALBANS, VT","ST",44.8486111,-73.1041667,"S","NAD83",170,20,"NGVD29","04150405","dv","00060","00003","65099",NA,"wat",NA,"1645423","0",2010-09-16,2017-07-18,2498
"USGS","04292795","STEVENS BROOK AT KELLOGG ROAD, NEAR ST. ALBANS, VT","ST",44.8486111,-73.1041667,"S","NAD83",170,20,"NGVD29","04150405","uv","00060",NA,"67360",NA,"wat",NA,"1645423","0",2010-09-17,2017-07-19,2497
"USGS","04292800","STEVENS BROOK NEAR ST ALBANS, VT","ST",44.8489331,-73.1193006,"S","NAD83",115,20,"NGVD29","04150405","dv","00060","00003","65100",NA,"wat",NA,"1645423","0",1990-09-01,1991-09-30,395
"USGS","04292810","JEWETT BROOK AT VT 38, NEAR ST. ALBANS, VT","ST",44.8561111,-73.1508333,"S","NAD83",111.53,0.09,"NAVD88","04150405","dv","00060","00003","65101",NA,"wat",NA,"1645423","0",2008-10-01,2023-10-25,5490
"USGS","04292810","JEWETT BROOK AT VT 38, NEAR ST. ALBANS, VT","ST",44.8561111,-73.1508333,"S","NAD83",111.53,0.09,"NAVD88","04150405","uv","00060",NA,"67363",NA,"wat",NA,"1645423","0",2008-10-01,2023-10-26,5503
"USGS","04293000","MISSISQUOI RIVER NEAR NORTH TROY, VT","ST",44.97282337,-72.38538628,"S","NAD83",581.38,0.13,"NAVD88","04150407","dv","00060","00003","65102",NA,"wat",NA,"1645423","0",1931-08-22,2023-10-25,33668
"USGS","04293000","MISSISQUOI RIVER NEAR NORTH TROY, VT","ST",44.97282337,-72.38538628,"S","NAD83",581.38,0.13,"NAVD88","04150407","uv","00060",NA,"67365",NA,"wat",NA,"1645423","0",1990-10-01,2023-10-26,12078
"USGS","04293200","MUD CREEK AT BEAR MOUNTAIN RD, NEAR NORTH TROY, VT","ST",44.9983333,-72.3591667,"S","NAD83",555,20,"NGVD29","04150407","dv","00060","00003","65103",NA,"wat",NA,"1645423","0",2009-08-27,2011-10-04,769
"USGS","04293200","MUD CREEK AT BEAR MOUNTAIN RD, NEAR NORTH TROY, VT","ST",44.9983333,-72.3591667,"S","NAD83",555,20,"NGVD29","04150407","uv","00060",NA,"67371",NA,"wat",NA,"1645423","0",2009-08-27,2011-10-04,768
"USGS","04293430","NORTH BRANCH ABOVE RIVER STREET, AT RICHFORD, VT","ST",45.0019444,-72.6755556,"S","NAD83",425,20,"NGVD29","04150407","dv","00060","00003","325161",NA,"wat",NA,"1645423","0",2009-08-28,2011-09-30,764
"USGS","04293430","NORTH BRANCH ABOVE RIVER STREET, AT RICHFORD, VT","ST",45.0019444,-72.6755556,"S","NAD83",425,20,"NGVD29","04150407","uv","00060",NA,"67375",NA,"wat",NA,"1645423","0",2009-08-29,2011-08-28,729
"USGS","04293500","MISSISQUOI RIVER NEAR EAST BERKSHIRE, VT","ST",44.96004599,-72.696521,"S","NAD83",402.51,0.1,"NAVD88","04150407","dv","00060","00003","65109",NA,"wat",NA,"1645423","0",1915-08-01,2023-10-25,37484
"USGS","04293500","MISSISQUOI RIVER NEAR EAST BERKSHIRE, VT","ST",44.96004599,-72.696521,"S","NAD83",402.51,0.1,"NAVD88","04150407","qw","00060",NA,"0",NA,"wat","PHY","1645423","0",1953-10-21,1973-04-25,25
"USGS","04293500","MISSISQUOI RIVER NEAR EAST BERKSHIRE, VT","ST",44.96004599,-72.696521,"S","NAD83",402.51,0.1,"NAVD88","04150407","uv","00060",NA,"67377",NA,"wat",NA,"1645423","0",1990-10-01,2023-10-26,12078
"USGS","04293600","TROUT RIVER AT HOPKINS BR, NR ENOSBURG FALLS, VT","ST",44.92027778,-72.6725,"S","NAD83",420,10,"NGVD29","04150407","dv","00060","00003","65110",NA,"wat",NA,"1645423","0",2009-08-01,2011-10-12,803
"USGS","04293600","TROUT RIVER AT HOPKINS BR, NR ENOSBURG FALLS, VT","ST",44.92027778,-72.6725,"S","NAD83",420,10,"NGVD29","04150407","uv","00060",NA,"67383",NA,"wat",NA,"1645423","0",2009-08-01,2011-10-13,803
"USGS","04293700","TYLER BRANCH @ DUFFY HILL RD NR ENOSBURG FALLS, VT","ST",44.8908333,-72.8219444,"S","NAD83",370,10,"NGVD29","04150407","dv","00060","00003","65115",NA,"wat",NA,"1645423","0",2009-08-09,2011-10-18,801
"USGS","04293700","TYLER BRANCH @ DUFFY HILL RD NR ENOSBURG FALLS, VT","ST",44.8908333,-72.8219444,"S","NAD83",370,10,"NGVD29","04150407","uv","00060",NA,"67387",NA,"wat",NA,"1645423","0",2009-08-09,2011-10-18,800
"USGS","04293795","BLACK CREEK ABOVE BRIDGE STREET, AT SHELDON, VT","ST",44.88055556,-72.94277778,"S","NAD83",340.44,0.1,"NAVD88","04150407","dv","00060","00003","65116",NA,"wat",NA,"1645423","0",2009-07-25,2011-09-30,798
"USGS","04293795","BLACK CREEK ABOVE BRIDGE STREET, AT SHELDON, VT","ST",44.88055556,-72.94277778,"S","NAD83",340.44,0.1,"NAVD88","04150407","uv","00060",NA,"67389",NA,"wat",NA,"1645423","0",2009-07-25,2011-09-30,797
"USGS","04293900","HUNGERFORD BR @ HIGHGATE RD NR HIGHGATE CENTER, VT","ST",44.9183333,-73.0555556,"S","NAD83",270,10,"NGVD29","04150407","dv","00060","00003","65117",NA,"wat",NA,"1645423","0",2009-09-11,2014-10-06,1522
"USGS","04293900","HUNGERFORD BR @ HIGHGATE RD NR HIGHGATE CENTER, VT","ST",44.9183333,-73.0555556,"S","NAD83",270,10,"NGVD29","04150407","uv","00060",NA,"67391",NA,"wat",NA,"1645423","0",2009-09-11,2014-10-06,1851
"USGS","04294000","MISSISQUOI RIVER AT SWANTON, VT","ST",44.91670937,-73.1284645,"S","NAD83",106.9,0.05,"NAVD88","04150407","dv","00060","00003","65122",NA,"wat",NA,"1645423","0",1990-03-01,2023-10-25,12292
"USGS","04294000","MISSISQUOI RIVER AT SWANTON, VT","ST",44.91670937,-73.1284645,"S","NAD83",106.9,0.05,"NAVD88","04150407","uv","00060",NA,"67399",NA,"wat",NA,"1645423","0",1991-02-07,2023-10-26,11949
"USGS","04294140","ROCK RIVER NEAR HIGHGATE CENTER, VT","ST",44.96305556,-72.9919444,"S","NAD83",229.47,0.09,"NAVD88","04150407","dv","00060","00003","65123",NA,"wat",NA,"1645423","0",2010-11-04,2023-10-25,4739
"USGS","04294140","ROCK RIVER NEAR HIGHGATE CENTER, VT","ST",44.96305556,-72.9919444,"S","NAD83",229.47,0.09,"NAVD88","04150407","uv","00060",NA,"67402",NA,"wat",NA,"1645423","0",2010-11-04,2023-10-26,4739
"USGS","04294300","PIKE RIVER AT EAST FRANKLIN, NR ENOSBURG FALLS, VT","ST",45.00282217,-72.83346858,"S","NAD83",397.54,0.13,"NAVD88","04150407","dv","00060","00003","65124",NA,"wat",NA,"1645423","0",2001-08-03,2023-10-25,8115
"USGS","04294300","PIKE RIVER AT EAST FRANKLIN, NR ENOSBURG FALLS, VT","ST",45.00282217,-72.83346858,"S","NAD83",397.54,0.13,"NAVD88","04150407","uv","00060",NA,"67409",NA,"wat",NA,"1645423","0",2001-08-03,2023-10-26,8119
"USGS","04296000","BLACK RIVER AT COVENTRY, VT","ST",44.8689363,-72.2701041,"S","NAD83",709.74,0.1,"NAVD88","04150500","dv","00060","00003","65134",NA,"wat",NA,"1645423","0",1951-10-01,2023-10-25,26309
"USGS","04296000","BLACK RIVER AT COVENTRY, VT","ST",44.8689363,-72.2701041,"S","NAD83",709.74,0.1,"NAVD88","04150500","qw","00060",NA,"0",NA,"wat","PHY","1645423","0",1977-12-13,1982-01-19,10
"USGS","04296000","BLACK RIVER AT COVENTRY, VT","ST",44.8689363,-72.2701041,"S","NAD83",709.74,0.1,"NAVD88","04150500","uv","00060",NA,"67419",NA,"wat",NA,"1645423","0",1990-10-01,2023-10-26,12078
"USGS","04296200","BROWNINGTON BRANCH NEAR EVANSVILLE, VT","ST",44.8333819,-72.0659319,"S","NAD83",1170,20,"NGVD29","04150500","dv","00060","00003","65135",NA,"wat",NA,"1645423","0",1963-06-20,1973-12-31,3848
"USGS","04296280","BARTON RIVER NEAR COVENTRY, VT","ST",44.87138889,-72.2005556,"S","NAD83",679.69,0.1,"NAVD88","04150500","dv","00060","00003","65136",NA,"wat",NA,"1645423","0",2010-07-16,2023-10-25,4849
"USGS","04296280","BARTON RIVER NEAR COVENTRY, VT","ST",44.87138889,-72.2005556,"S","NAD83",679.69,0.1,"NAVD88","04150500","uv","00060",NA,"168626",NA,"wat",NA,"1645423","0",2010-07-16,2023-10-26,4850
"USGS","04296500","CLYDE RIVER AT NEWPORT, VT","ST",44.94032449,-72.1892684,"S","NAD83",681.82,0.09,"NAVD88","04150500","dv","00060","00003","65137",NA,"wat",NA,"1645423","0",1909-05-25,2023-10-25,39047
"USGS","04296500","CLYDE RIVER AT NEWPORT, VT","ST",44.94032449,-72.1892684,"S","NAD83",681.82,0.09,"NAVD88","04150500","qw","00060",NA,"0",NA,"wat","PHY","1645423","0",1956-12-19,1959-04-07,7
"USGS","04296500","CLYDE RIVER AT NEWPORT, VT","ST",44.94032449,-72.1892684,"S","NAD83",681.82,0.09,"NAVD88","04150500","uv","00060",NA,"67428",NA,"wat",NA,"1645423","0",1991-04-30,2023-10-26,11867
